{
  "scenario": "operation_sikkim_slide",
  "disaster": {
    "disaster_id": "dis_003",
    "disaster_type": "landslide",
    "region": "Sikkim",
    "triggered_at": "2025-07-04T03:15:00Z",
    "status": "active"
  },
  "zones": [
    {"zone_id":"LZ-001","name":"Gangtok East Ridge","lat":27.33,"lon":88.63,"severity":10,"population":4400,"status":"critical","road_accessible":false},
    {"zone_id":"LZ-002","name":"Gangtok North Slope","lat":27.36,"lon":88.61,"severity":9,"population":3800,"status":"critical","road_accessible":false},
    {"zone_id":"LZ-003","name":"Mangan Valley","lat":27.51,"lon":88.53,"severity":10,"population":2900,"status":"critical","road_accessible":false},
    {"zone_id":"LZ-004","name":"Chungthang Confluence","lat":27.62,"lon":88.49,"severity":9,"population":1800,"status":"critical","road_accessible":false},
    {"zone_id":"LZ-005","name":"Lachen Village","lat":27.72,"lon":88.56,"severity":8,"population":1200,"status":"critical","road_accessible":false},
    {"zone_id":"LZ-006","name":"Lachung Town","lat":27.69,"lon":88.74,"severity":8,"population":1400,"status":"critical","road_accessible":false},
    {"zone_id":"LZ-007","name":"Rangpo Border","lat":27.17,"lon":88.53,"severity":6,"population":5200,"status":"moderate","road_accessible":true},
    {"zone_id":"LZ-008","name":"Singtam Town","lat":27.23,"lon":88.50,"severity":7,"population":6100,"status":"critical","road_accessible":false},
    {"zone_id":"LZ-009","name":"Jorethang","lat":27.11,"lon":88.31,"severity":6,"population":4800,"status":"moderate","road_accessible":true},
    {"zone_id":"LZ-010","name":"Namchi Town","lat":27.17,"lon":88.36,"severity":5,"population":5500,"status":"moderate","road_accessible":true},
    {"zone_id":"LZ-011","name":"Ravangla Village","lat":27.29,"lon":88.36,"severity":7,"population":2200,"status":"critical","road_accessible":false},
    {"zone_id":"LZ-012","name":"Temi Tea Garden","lat":27.27,"lon":88.40,"severity":5,"population":1800,"status":"moderate","road_accessible":true},
    {"zone_id":"LZ-013","name":"Pelling West","lat":27.35,"lon":88.21,"severity":8,"population":3100,"status":"critical","road_accessible":false},
    {"zone_id":"LZ-014","name":"Khechopalri Lake Zone","lat":27.42,"lon":88.22,"severity":7,"population":1600,"status":"critical","road_accessible":false},
    {"zone_id":"LZ-015","name":"Yuksom Village","lat":27.46,"lon":88.24,"severity":9,"population":1100,"status":"critical","road_accessible":false},
    {"zone_id":"LZ-016","name":"Tashiding Monastery","lat":27.45,"lon":88.31,"severity":8,"population":900,"status":"critical","road_accessible":false},
    {"zone_id":"LZ-017","name":"Dentam Valley","lat":27.50,"lon":88.22,"severity":7,"population":1300,"status":"critical","road_accessible":false},
    {"zone_id":"LZ-018","name":"Soreng District","lat":27.26,"lon":88.21,"severity":6,"population":2800,"status":"moderate","road_accessible":true},
    {"zone_id":"LZ-019","name":"Gyalshing Town","lat":27.32,"lon":88.26,"severity":5,"population":3200,"status":"moderate","road_accessible":true},
    {"zone_id":"LZ-020","name":"Legship Valley","lat":27.19,"lon":88.27,"severity":4,"population":2100,"status":"moderate","road_accessible":true},
    {"zone_id":"LZ-021","name":"Rongli Town","lat":27.21,"lon":88.83,"severity":7,"population":2400,"status":"critical","road_accessible":false},
    {"zone_id":"LZ-022","name":"Kupup High Altitude","lat":27.13,"lon":88.83,"severity":9,"population":600,"status":"critical","road_accessible":false},
    {"zone_id":"LZ-023","name":"Nathang Valley","lat":27.11,"lon":88.87,"severity":8,"population":400,"status":"critical","road_accessible":false},
    {"zone_id":"LZ-024","name":"Zuluk Switchbacks","lat":27.07,"lon":88.82,"severity":9,"population":700,"status":"critical","road_accessible":false},
    {"zone_id":"LZ-025","name":"Aritar Village","lat":27.05,"lon":88.79,"severity":6,"population":1900,"status":"moderate","road_accessible":true},
    {"zone_id":"LZ-026","name":"Pakyong Airport Zone","lat":27.22,"lon":88.58,"severity":4,"population":4500,"status":"stable","road_accessible":true},
    {"zone_id":"LZ-027","name":"Tadong Outskirts","lat":27.31,"lon":88.62,"severity":5,"population":5800,"status":"moderate","road_accessible":true},
    {"zone_id":"LZ-028","name":"Ranka Monastery","lat":27.38,"lon":88.58,"severity":6,"population":1200,"status":"moderate","road_accessible":false},
    {"zone_id":"LZ-029","name":"Rumtek Zone","lat":27.32,"lon":88.61,"severity":7,"population":2100,"status":"critical","road_accessible":false},
    {"zone_id":"LZ-030","name":"Samdruptse Hills","lat":27.14,"lon":88.34,"severity":6,"population":1500,"status":"moderate","road_accessible":false},
    {"zone_id":"LZ-031","name":"Melli Bridge Area","lat":27.06,"lon":88.37,"severity":5,"population":3100,"status":"moderate","road_accessible":true},
    {"zone_id":"LZ-032","name":"Majitar Colony","lat":27.10,"lon":88.51,"severity":3,"population":4200,"status":"stable","road_accessible":true},
    {"zone_id":"LZ-033","name":"Rhenock Town","lat":27.14,"lon":88.71,"severity":4,"population":2800,"status":"stable","road_accessible":true},
    {"zone_id":"LZ-034","name":"Dzongu Reserve","lat":27.58,"lon":88.60,"severity":8,"population":1600,"status":"critical","road_accessible":false},
    {"zone_id":"LZ-035","name":"Tolung Valley","lat":27.65,"lon":88.44,"severity":9,"population":900,"status":"critical","road_accessible":false},
    {"zone_id":"LZ-036","name":"Tingchim","lat":27.55,"lon":88.57,"severity":7,"population":1100,"status":"critical","road_accessible":false},
    {"zone_id":"LZ-037","name":"Phodong Monastery Area","lat":27.47,"lon":88.57,"severity":6,"population":800,"status":"moderate","road_accessible":false},
    {"zone_id":"LZ-038","name":"Tung Village","lat":27.44,"lon":88.46,"severity":5,"population":1200,"status":"moderate","road_accessible":true},
    {"zone_id":"LZ-039","name":"Chakung","lat":27.40,"lon":88.28,"severity":8,"population":700,"status":"critical","road_accessible":false},
    {"zone_id":"LZ-040","name":"Hee Bermiok","lat":27.35,"lon":88.17,"severity":7,"population":1400,"status":"critical","road_accessible":false},
    {"zone_id":"LZ-041","name":"Sombaria","lat":27.23,"lon":88.12,"severity":6,"population":1800,"status":"moderate","road_accessible":false},
    {"zone_id":"LZ-042","name":"Uttarey Village","lat":27.40,"lon":88.15,"severity":8,"population":1100,"status":"critical","road_accessible":false},
    {"zone_id":"LZ-043","name":"Varsey Forest","lat":27.46,"lon":88.17,"severity":7,"population":500,"status":"critical","road_accessible":false},
    {"zone_id":"LZ-044","name":"Khecheopalri Watershed","lat":27.43,"lon":88.19,"severity":9,"population":600,"status":"critical","road_accessible":false},
    {"zone_id":"LZ-045","name":"Denchung","lat":27.55,"lon":88.36,"severity":6,"population":900,"status":"moderate","road_accessible":false},
    {"zone_id":"LZ-046","name":"Kabi Longstok","lat":27.40,"lon":88.52,"severity":5,"population":700,"status":"moderate","road_accessible":true},
    {"zone_id":"LZ-047","name":"Martam","lat":27.26,"lon":88.57,"severity":4,"population":2400,"status":"stable","road_accessible":true},
    {"zone_id":"LZ-048","name":"Ranipool Town","lat":27.28,"lon":88.59,"severity":3,"population":3500,"status":"stable","road_accessible":true},
    {"zone_id":"LZ-049","name":"Syari","lat":27.32,"lon":88.60,"severity":4,"population":2800,"status":"stable","road_accessible":true},
    {"zone_id":"LZ-050","name":"Deorali Market","lat":27.32,"lon":88.60,"severity":5,"population":4200,"status":"moderate","road_accessible":true}
  ],
  "hospitals": [
    {"hospital_id":"LH-001","name":"STNM Hospital Gangtok","lat":27.33,"lon":88.62,"capacity":300,"available_beds":200},
    {"hospital_id":"LH-002","name":"District Hospital Namchi","lat":27.17,"lon":88.36,"capacity":150,"available_beds":100},
    {"hospital_id":"LH-003","name":"District Hospital Gyalshing","lat":27.32,"lon":88.26,"capacity":120,"available_beds":80},
    {"hospital_id":"LH-004","name":"Mangan PHC","lat":27.51,"lon":88.53,"capacity":60,"available_beds":40},
    {"hospital_id":"LH-005","name":"Singtam District Hospital","lat":27.23,"lon":88.50,"capacity":180,"available_beds":120},
    {"hospital_id":"LH-006","name":"Pakyong Medical Center","lat":27.22,"lon":88.58,"capacity":90,"available_beds":60},
    {"hospital_id":"LH-007","name":"Soreng PHC","lat":27.26,"lon":88.21,"capacity":60,"available_beds":40},
    {"hospital_id":"LH-008","name":"Rangpo Clinic","lat":27.17,"lon":88.53,"capacity":45,"available_beds":30},
    {"hospital_id":"LH-009","name":"Chungthang Sub-Center","lat":27.62,"lon":88.49,"capacity":30,"available_beds":20},
    {"hospital_id":"LH-010","name":"Jorethang Hospital","lat":27.11,"lon":88.31,"capacity":100,"available_beds":70}
  ],
  "warehouses": [
    {"warehouse_id":"LWH-001","name":"Gangtok Central Relief Store","lat":27.33,"lon":88.61,"food_units":10000,"medicine_units":4500,"rescue_kits":700},
    {"warehouse_id":"LWH-002","name":"Singtam Depot","lat":27.23,"lon":88.50,"food_units":6000,"medicine_units":2800,"rescue_kits":450},
    {"warehouse_id":"LWH-003","name":"Namchi Supply Hub","lat":27.16,"lon":88.36,"food_units":8000,"medicine_units":3500,"rescue_kits":550},
    {"warehouse_id":"LWH-004","name":"Gyalshing Forward Base","lat":27.32,"lon":88.26,"food_units":5000,"medicine_units":2000,"rescue_kits":350},
    {"warehouse_id":"LWH-005","name":"Mangan Emergency Cache","lat":27.51,"lon":88.53,"food_units":3000,"medicine_units":1500,"rescue_kits":250}
  ],
  "drones": [
    {"drone_id":"LD-001","type":"rescue","range_km":35,"payload_kg":15,"base":"LH-001","status":"standby"},
    {"drone_id":"LD-002","type":"supply","range_km":45,"payload_kg":25,"base":"LWH-001","status":"standby"},
    {"drone_id":"LD-003","type":"rescue","range_km":35,"payload_kg":15,"base":"LH-004","status":"standby"},
    {"drone_id":"LD-004","type":"supply","range_km":45,"payload_kg":25,"base":"LWH-005","status":"standby"},
    {"drone_id":"LD-005","type":"survey","range_km":70,"payload_kg":5,"base":"LWH-001","status":"standby"},
    {"drone_id":"LD-006","type":"rescue","range_km":35,"payload_kg":15,"base":"LH-002","status":"standby"},
    {"drone_id":"LD-007","type":"supply","range_km":45,"payload_kg":25,"base":"LWH-002","status":"standby"},
    {"drone_id":"LD-008","type":"survey","range_km":70,"payload_kg":5,"base":"LWH-003","status":"standby"},
    {"drone_id":"LD-009","type":"rescue","range_km":35,"payload_kg":15,"base":"LH-005","status":"standby"},
    {"drone_id":"LD-010","type":"supply","range_km":45,"payload_kg":25,"base":"LWH-004","status":"standby"}
  ],
  "vehicles": [
    {"vehicle_id":"LV-001","type":"4WD-rescue","base":"LWH-001","capacity_kg":1500,"status":"available"},
    {"vehicle_id":"LV-002","type":"ambulance","base":"LH-001","capacity_kg":500,"status":"available"},
    {"vehicle_id":"LV-003","type":"helicopter","base":"LWH-001","capacity_kg":1800,"status":"available"},
    {"vehicle_id":"LV-004","type":"ambulance","base":"LH-002","capacity_kg":500,"status":"available"},
    {"vehicle_id":"LV-005","type":"4WD-rescue","base":"LWH-002","capacity_kg":1500,"status":"available"},
    {"vehicle_id":"LV-006","type":"helicopter","base":"LWH-003","capacity_kg":1800,"status":"available"},
    {"vehicle_id":"LV-007","type":"4WD-rescue","base":"LWH-004","capacity_kg":1500,"status":"available"},
    {"vehicle_id":"LV-008","type":"ambulance","base":"LH-005","capacity_kg":500,"status":"available"},
    {"vehicle_id":"LV-009","type":"truck","base":"LWH-003","capacity_kg":2500,"status":"available"},
    {"vehicle_id":"LV-010","type":"ambulance","base":"LH-003","capacity_kg":500,"status":"available"}
  ],
  "summary": {
    "total_zones": 50,
    "critical_zones": 25,
    "moderate_zones": 17,
    "stable_zones": 8,
    "road_blocked_zones": 28,
    "total_population_at_risk": 112000,
    "total_hospitals": 10,
    "total_warehouses": 5,
    "total_drones": 10,
    "total_vehicles": 10
  }
}
